{
  "name": "성시경",
  "program": "먹을텐데",
  "list": [
    {
      "name": "한재골가든",
      "food": "닭볽음탕",
      "stars": 0,
      "latlng": { "lat": 35.2942666545469, "lng": 126.880658428365 },
      "youtube": "https://youtu.be/DbkkQTWZDUA?si=yr0MqTNAegFDJLcl",
      "youtubeEmbed": "https://www.youtube.com/embed/DbkkQTWZDUA?si=bLpaVujvoDUjcaMO"
    },
    {
      "name": "하남 숯불닭갈비",
      "food": "숯불닭갈비",
      "stars": 0,
      "latlng": { "lat": 37.5659847328844, "lng": 127.205579270342 },
      "youtube": "https://youtu.be/4tcBe6L8uzI?si=IXYGSLxwgEY9t4eE",
      "youtubeEmbed": "https://www.youtube.com/embed/4tcBe6L8uzI?si=IXYGSLxwgEY9t4eE"
    },
    {
      "name": "풍성감자탕",
      "food": "감자탕",
      "stars": 0,
      "latlng": { "lat": 37.5375769086631, "lng": 127.083844149774 },
      "youtube": "https://youtu.be/wKNO7zfr8JQ?si=94rbIzXEDnG9YLCm",
      "youtubeEmbed": "https://www.youtube.com/embed/wKNO7zfr8JQ?si=94rbIzXEDnG9YLCm"
    },
    {
      "name": "효제루",
      "food": "중식",
      "stars": 0,
      "latlng": { "lat": 37.572688168981, "lng": 127.002193692012 },
      "youtube": "https://youtu.be/iA84pSaU_G8?si=M_yBQZ8Klu7boi2T",
      "youtubeEmbed": "https://www.youtube.com/embed/iA84pSaU_G8?si=M_yBQZ8Klu7boi2T"
    },
    {
      "name": "전원식당",
      "food": "두루치기",
      "stars": 0,
      "latlng": { "lat": 38.2129588244246, "lng": 128.598068148553 },
      "youtube": "https://youtu.be/IJwIJZ3G-pw?si=7u0IgTamUXTJP9qc",
      "youtubeEmbed": "https://www.youtube.com/embed/IJwIJZ3G-pw?si=7u0IgTamUXTJP9qc"
    },
    {
      "name": "이품",
      "food": "중식",
      "stars": 0,
      "latlng": { "lat": 37.5675446845976, "lng": 126.930062500433 },
      "youtube": "https://youtu.be/C3E86BioldA?si=Ucm0D-fp4UwwECpT",
      "youtubeEmbed": "https://www.youtube.com/embed/C3E86BioldA?si=Ucm0D-fp4UwwECpT"
    },
    {
      "name": "매치스",
      "food": "와인바",
      "stars": 0,
      "latlng": { "lat": 37.5413178745918, "lng": 127.058020155628 },
      "youtube": "https://youtu.be/YEUXJ9lBk2E?si=r10bHiSbBWT67H6e",
      "youtubeEmbed": "https://www.youtube.com/embed/YEUXJ9lBk2E?si=r10bHiSbBWT67H6e"
    },
    {
      "name": "초원",
      "food": "우설",
      "stars": 0,
      "latlng": { "lat": 37.5427605404136, "lng": 126.973355698925 },
      "youtube": "https://youtu.be/3OpdevZyzrs?si=z4nyHh9xUALVGiVo",
      "youtubeEmbed": "https://www.youtube.com/embed/3OpdevZyzrs?si=z4nyHh9xUALVGiVo"
    },
    {
      "name": "잔비워",
      "food": "치킨",
      "stars": 0,
      "latlng": { "lat": 37.5266735389328, "lng": 127.046196583355 },
      "youtube": "https://youtu.be/UFN682fRiWQ?si=Kgqp-0X6h3u_BW16",
      "youtubeEmbed": "https://www.youtube.com/embed/UFN682fRiWQ?si=Kgqp-0X6h3u_BW16"
    },
    {
      "name": "이남장",
      "food": "수육",
      "stars": 0,
      "latlng": { "lat": 37.5136041356779, "lng": 127.064458979826 },
      "youtube": "https://youtu.be/UFN682fRiWQ?si=Kgqp-0X6h3u_BW16",
      "youtubeEmbed": "https://www.youtube.com/embed/UFN682fRiWQ?si=Kgqp-0X6h3u_BW16"
    },
    {
      "name": "가담",
      "food": "난자완스 고추탕수육",
      "stars": 0,
      "latlng": { "lat": 37.5263661402159, "lng": 127.030258157623 },
      "youtube": "https://youtu.be/Pdq4VoNf7tI?si=sD7HaUHBl8QsZGwI",
      "youtubeEmbed": "https://www.youtube.com/embed/Pdq4VoNf7tI?si=sD7HaUHBl8QsZGwI"
    },
    {
      "name": "진동세꼬시",
      "food": "세꼬시",
      "stars": 0,
      "latlng": { "lat": 37.5500358913535, "lng": 126.97658725684 },
      "youtube": "https://youtu.be/vbgOayi86Dg?si=FvZSb6ZydKSIieq1",
      "youtubeEmbed": "https://www.youtube.com/embed/vbgOayi86Dg?si=FvZSb6ZydKSIieq1"
    },
    {
      "name": "충북순대",
      "food": "곱창전골",
      "stars": 0,
      "latlng": { "lat": 37.5078713792896, "lng": 126.963822451667 },
      "youtube": "",
      "youtubeEmbed": "https://www.youtube.com/embed/TUbvswTagLg?si=v6KswHyYaX3btIdm"
    },
    {
      "name": "진미순대",
      "food": "순대국밥",
      "stars": 0,
      "latlng": { "lat": 37.5066369329911, "lng": 126.962729487098 },
      "youtube": "",
      "youtubeEmbed": "https://www.youtube.com/embed/3LSQH7ULyaE?si=ofmQx_zs6KRTpx-E"
    },
    {
      "name": "오소록",
      "food": "순대국밥",
      "stars": 0,
      "latlng": { "lat": 37.5679441329777, "lng": 127.056584923393 },
      "youtube": "",
      "youtubeEmbed": "https://www.youtube.com/embed/kV8BKO9VKdQ?si=IyNLN2tjZXISzEzS"
    },
    {
      "name": "스테이지 바이 고디바",
      "food": "디저트 코스",
      "stars": 0,
      "latlng": { "lat": 37.5238779875217, "lng": 127.037023763409 },
      "youtube": "",
      "youtubeEmbed": "https://www.youtube.com/embed/nDYvEJb5QeY?si=774RqMxiX6RN5xRl"
    },
    {
      "name": "향미",
      "food": "중식",
      "stars": 0,
      "latlng": { "lat": 37.5621198047309, "lng": 126.981717024453 },
      "youtube": "",
      "youtubeEmbed": "https://www.youtube.com/embed/X5QLs6bflT4?si=yJkxsS9wBzn2Buy6"
    },
    {
      "name": "개화",
      "food": "중식",
      "stars": 0,
      "latlng": { "lat": 37.5621137, "lng": 126.9818132 },
      "youtube": "",
      "youtubeEmbed": "https://www.youtube.com/embed/X5QLs6bflT4?si=yJkxsS9wBzn2Buy6"
    },
    {
      "name": "함덕골목",
      "food": "해장국 내장탕",
      "stars": 0,
      "latlng": { "lat": 33.5393574441934, "lng": 126.641158316654 },
      "youtube": "",
      "youtubeEmbed": "https://www.youtube.com/embed/8iDE8whsJpU?si=DP5tpV3gK7Unwxhj"
    },
    {
      "name": "해녀촌",
      "food": "회국수 성게국수",
      "stars": 0,
      "latlng": { "lat": 33.55366594917, "lng": 126.709888469555 },
      "youtube": "",
      "youtubeEmbed": "https://www.youtube.com/embed/glQ2P0B-EwE?si=YmJU0mr4LO1P4KRt"
    },
    {
      "name": "돌다메",
      "food": "돼지고기",
      "stars": 0,
      "latlng": { "lat": 33.4914464423885, "lng": 126.428783678989 },
      "youtube": "",
      "youtubeEmbed": "https://www.youtube.com/embed/glQ2P0B-EwE?si=YmJU0mr4LO1P4KRt"
    },
    {
      "name": "굴과찜사랑",
      "food": "바지락칼국수 석화",
      "stars": 0,
      "latlng": { "lat": 37.5603529338675, "lng": 127.032905160456 },
      "youtube": "",
      "youtubeEmbed": "https://www.youtube.com/embed/RDcRtNT-bm0?si=4ZNcOHMIT2mCX5nz"
    },
    {
      "name": "권영수 대가전골",
      "food": "곱창전골",
      "stars": 0,
      "latlng": { "lat": 37.5790377655561, "lng": 127.039142935818 },
      "youtube": "",
      "youtubeEmbed": "https://www.youtube.com/embed/UhlyCAVklLE?si=TvJ_RPxGK8n0El3d"
    },
    {
      "name": "돈키돈까스",
      "food": "돈까스",
      "stars": 0,
      "latlng": { "lat": 37.4825912, "lng": 126.9832251 },
      "youtube": "",
      "youtubeEmbed": "https://www.youtube.com/embed/AwQ4g5o1F4Y?si=PmXi0UwN42ykVa6W"
    },
    {
      "name": "도량",
      "food": "중식",
      "stars": 0,
      "latlng": { "lat": 37.5779680592302, "lng": 126.972504517859 },
      "youtube": "",
      "youtubeEmbed": "https://www.youtube.com/embed/83rTZdp9ty8?si=n78E4xcvc01q_M0l"
    },
    {
      "name": "오쁘띠베르",
      "food": "까페",
      "stars": 0,
      "latlng": { "lat": 37.5802603634986, "lng": 126.970979516515 },
      "youtube": "",
      "youtubeEmbed": "https://www.youtube.com/embed/83rTZdp9ty8?si=n78E4xcvc01q_M0l"
    },
    {
      "name": "파이브가이즈",
      "food": "햄버거",
      "stars": 0,
      "latlng": { "lat": 37.5011776111829, "lng": 127.025561030522 },
      "youtube": "",
      "youtubeEmbed": "https://www.youtube.com/embed/ofqOn5PUqbs?si=tDFJhc1vNfJUwfOJ"
    },
    {
      "name": "윤밀원",
      "food": "족발",
      "stars": 0,
      "latlng": { "lat": 37.372662879865, "lng": 127.114985989481 },
      "youtube": "",
      "youtubeEmbed": "https://www.youtube.com/embed/Mlh01V0vxeI?si=_dMfTgOWUA_yW1dl"
    },
    {
      "name": "로코스 비비큐",
      "food": "쪽갈비",
      "stars": 0,
      "latlng": { "lat": 37.5409871411854, "lng": 126.995540359983 },
      "youtube": "",
      "youtubeEmbed": "https://www.youtube.com/embed/Hmje6h1lcuQ?si=NJkHPalTtsvzLhwW"
    },
    {
      "name": "야스노야",
      "food": "양고기",
      "stars": 0,
      "latlng": { "lat": 37.546726600027, "lng": 126.978409378518 },
      "youtube": "",
      "youtubeEmbed": "https://www.youtube.com/embed/PjRz1aL-3Z8?si=J9yV6BZ09w9FLEz5"
    },
    {
      "name": "청화집",
      "food": "순대국밥",
      "stars": 0,
      "latlng": { "lat": 36.7623467490991, "lng": 127.299220238358 },
      "youtube": "",
      "youtubeEmbed": "https://www.youtube.com/embed/UHembfdHJn8?si=Kp2mnIq269yjCjen"
    },
    {
      "name": "묵호회집",
      "food": "회",
      "stars": 0,
      "latlng": { "lat": 37.5627128537817, "lng": 126.978088868479 },
      "youtube": "",
      "youtubeEmbed": "https://www.youtube.com/embed/n5Zpld_kH0o?si=0i9Leg5_sPIwySL8"
    },
    {
      "name": "안동집",
      "food": "수육",
      "stars": 0,
      "latlng": { "lat": 37.5790377655561, "lng": 127.039142935818 },
      "youtube": "",
      "youtubeEmbed": "https://www.youtube.com/embed/6T7fWf5EA0s?si=L2v4rqOfegw3SWvE"
    },
    {
      "name": "김제식당",
      "food": "아귀탕",
      "stars": 0,
      "latlng": { "lat": 37.5790377655561, "lng": 127.039142935818 },
      "youtube": "",
      "youtubeEmbed": "https://www.youtube.com/embed/6T7fWf5EA0s?si=L2v4rqOfegw3SWvE"
    },
    {
      "name": "남원통닭",
      "food": "치킨",
      "stars": 0,
      "latlng": { "lat": 37.5804162833524, "lng": 127.042785999351 },
      "youtube": "",
      "youtubeEmbed": "https://www.youtube.com/embed/jhAV4lWMlm8?si=2Ex3wWHGu1UEc_Sr"
    },
    {
      "name": "별미순대국",
      "food": "순대국",
      "stars": 0,
      "latlng": { "lat": 37.7370656518487, "lng": 127.040247939434 },
      "youtube": "",
      "youtubeEmbed": "https://www.youtube.com/embed/UipN-iww9FE?si=6cdz5lzupuiO79il"
    },
    {
      "name": "월드양념통닭",
      "food": "치킨",
      "stars": 0,
      "latlng": { "lat": 35.0809322673242, "lng": 128.967738567386 },
      "youtube": "",
      "youtubeEmbed": "https://www.youtube.com/embed/EMEROo6ZX6E?si=SQaWr3vIn0RubrUy"
    },
    {
      "name": "원조신촌설렁탕",
      "food": "설렁탕",
      "stars": 0,
      "latlng": { "lat": 37.5482869552281, "lng": 126.95627603557 },
      "youtube": "",
      "youtubeEmbed": "https://www.youtube.com/embed/XO-UqGjZomc?si=DarcZVh3sHEkpEls"
    },
    {
      "name": "와일드버팔로",
      "food": "버팔로윙",
      "stars": 0,
      "latlng": { "lat": 37.5272184688508, "lng": 127.03920827101 },
      "youtube": "",
      "youtubeEmbed": "https://www.youtube.com/embed/wJL-V0MCgJ8?si=SOL84DQ2xID9afBt"
    },
    {
      "name": "진미식당",
      "food": "비빈밥",
      "stars": 0,
      "latlng": { "lat": 36.0058655389872, "lng": 126.944902346145 },
      "youtube": "",
      "youtubeEmbed": "https://www.youtube.com/embed/Pj61du5bEiY?si=55-WRXzxv0ZvVhtQ"
    },
    {
      "name": "딸랏",
      "food": "태국음식",
      "stars": 0,
      "latlng": { "lat": 37.5268588307107, "lng": 127.037696098344 },
      "youtube": "",
      "youtubeEmbed": "https://www.youtube.com/embed/rTHlGX3-obY?si=MiPUPURgUVq2Deul"
    },
    {
      "name": "삼호짱뚱이",
      "food": "홍어삼합",
      "stars": 0,
      "latlng": { "lat": 37.5196323891314, "lng": 127.031023065458 },
      "youtube": "",
      "youtubeEmbed": "https://www.youtube.com/embed/9XLtqkJt1wY?si=Gv7XJ47omqghRbLK"
    },
    {
      "name": "오띠젤리",
      "food": "브런치",
      "stars": 0,
      "latlng": { "lat": 37.5332553510698, "lng": 126.989357050611 },
      "youtube": "",
      "youtubeEmbed": "https://www.youtube.com/embed/1ms4Gaqvbx8?si=r9rPiM43pwZoiAMk"
    },
    {
      "name": "야래향",
      "food": "중식",
      "stars": 0,
      "latlng": { "lat": 37.520847506274, "lng": 126.974753411637 },
      "youtube": "",
      "youtubeEmbed": "https://www.youtube.com/embed/yI88OaPRMhA?si=LW9yjLPie5d8KKN4"
    },
    {
      "name": "진영면옥",
      "food": "평양냉면",
      "stars": 0,
      "latlng": { "lat": 37.4715699238483, "lng": 126.90039992595 },
      "youtube": "",
      "youtubeEmbed": "https://www.youtube.com/embed/u4WD7bWkMus?si=y-o_zqdNGbZeLFR-"
    }
  ]
}
